Turning on GPS..

AT+CGPSPWR=1
OK
GPS Turned on

Getting GPS Status..

AT+CGPSSTATUS?
+CGPSSTATUS: Location Not Fix

OK
No GPS fix
Enabling NMEA output..

AT+CGPSOUT=255
OK
NMEA port is enabled

$GPGGA,235955.021,,,,,0,0,,,M,,M,,*46
$GPGSA,A,1,,,,,,,,,,,,,,,*1E
$GPGSV,1,1,00*79
$GPRMC,235955.021,V,,,,,0.00,0.00,050180,,,N*4F
$GPGGA,235956.021,,,,,0,0,,,M,,M,,*45
$GPGSA,A,1,,,,,,,,,,,,,,,*1E
$GPGSV,1,1,00*79
$GPRMC,235956.021,V,,,,,0.00,0.00,050180,,,N*4C
$GPGGA,235957.021,,,,,0,0,,,M,,M,,*44
$GPGSA,A,1,,,,,,,,,,,,,,,*1E
$GPGSV,1,1,00*79
$GPRMC,235957.021,V,,,,,0.00,0.00,050180,,,N*4D
$GPGGA,235958.021,,,,,0,0,,,M,,M,,*4B
$GPGSA,A,1,,,,,,,,,,,,,,,*1E
$GPGSV,1,1,00*79
$GPRMC,235958.021,V,,,,,0.00,0.00,050180,,,N*42
$GPGGA,235959.021,,,,,0,0,,,M,,M,,*4A
$GPGSA,A,1,,,,,,,,,,,,,,,*1E
$GPGSV,1,1,00*79
$GPRMC,235959.021,V,,,,,0.00,0.00,050180,,,N*43
$GPGGA,000000.021,,,,,0,0,,,M,,M,,*4B
$GPGSA,A,1,,,,,,,,,,,,,,,*1E
$GPGSV,1,1,00*79
$GPRMC,000000.021,V,,,,,0.00,0.00,060180,,,N*41
$GPGGA,000001.021,,,,,0,0,,,M,,M,,*4A
$GPGSA,A,1,,,,,,,,,,,,,,,*1E
$GPGSV,1,1,00*79
$GPRMC,000001.021,V,,,,,0.00,0.00,060180,,,N*40
$GPGGA,000002.021,,,,,0,0,,,M,,M,,*49
$GPGSA,A,1,,,,,,,,,,,,,,,*1E
$GPGSV,1,1,00*79
$GPRMC,000002.021,V,,,,,0.00,0.00,060180,,,N*43
$GPGGA,000003.021,,,,,0,0,,,M,,M,,*48
$GPGSA,A,1,,,,,,,,,,,,,,,*1E
$GPGSV,1,1,00*79
$GPRMC,000003.021,V,,,,,0.00,0.00,060180,,,N*42
$GPGGA,000004.021,,,,,0,0,,,M,,M,,*4F
$GPGSA,A,1,,,,,,,,,,,,,,,*1E
$GPGSV,1,1,00*79
$GPRMC,000004.021,V,,,,,0.00,0.00,060180,,,N*45
$GPGGA,000005.021,,,,,0,0,,,M,,M,,*4E
$GPGSA,A,1,,,,,,,,,,,,,,,*1E
$GPGSV,1,1,00*79
$GPRMC,000005.021,V,,,,,0.00,0.00,060180,,,N*44
$GPGGA,000006.021,,,,,0,0,,,M,,M,,*4D
$GPGSA,A,1,,,,,,,,,,,,,,,*1E
$GPGSV,1,1,00*79
$GPRMC,000006.021,V,,,,,0.00,0.00,060180,,,N*47
$GPGGA,000007.021,,,,,0,0,,,M,,M,,*4C
$GPGSA,A,1,,,,,,,,,,,,,,,*1E
$GPGSV,1,1,00*79
$GPRMC,000007.021,V,,,,,0.00,0.00,060180,,,N*46
$GPGGA,000008.021,,,,,0,0,,,M,,M,,*43
$GPGSA,A,1,,,,,,,,,,,,,,,*1E
$GPGSV,1,1,00*79
$GPRMC,000008.021,V,,,,,0.00,0.00,060180,,,N*49
$GPGGA,000009.021,,,,,0,0,,,M,,M,,*42
$GPGSA,A,1,,,,,,,,,,,,,,,*1E
$GPGSV,1,1,00*79
$GPRMC,000009.021,V,,,,,0.00,0.00,060180,,,N*48
$GPGGA,000010.021,,,,,0,0,,,M,,M,,*4A
$GPGSA,A,1,,,,,,,,,,,,,,,*1E
$GPGSV,1,1,00*79
$GPRMC,000010.021,V,,,,,0.00,0.00,060180,,,N*40
$GPGGA,000011.021,,,,,0,0,,,M,,M,,*4B
$GPGSA,A,1,,,,,,,,,,,,,,,*1E
$GPGSV,1,1,00*79
$GPRMC,000011.021,V,,,,,0.00,0.00,060180,,,N*41
$GPGGA,000012.021,,,,,0,0,,,M,,M,,*48
$GPGSA,A,1,,,,,,,,,,,,,,,*1E
$GPGSV,1,1,00*79
$GPRMC,000012.021,V,,,,,0.00,0.00,060180,,,N*42
$GPGGA,000013.021,,,,,0,0,,,M,,M,,*49
$GPGSA,A,1,,,,,,,,,,,,,,,*1E
$GPGSV,1,1,00*79
$GPRMC,000013.021,V,,,,,0.00,0.00,060180,,,N*43
$GPGGA,000014.021,,,,,0,0,,,M,,M,,*4E
$GPGSA,A,1,,,,,,,,,,,,,,,*1E
$GPGSV,1,1,00*79
$GPRMC,000014.021,V,,,,,0.00,0.00,060180,,,N*44
$GPGGA,000015.021,,,,,0,0,,,M,,M,,*4F
$GPGSA,A,1,,,,,,,,,,,,,,,*1E
$GPGSV,1,1,00*79
$GPRMC,000015.021,V,,,,,0.00,0.00,060180,,,N*45
$GPGGA,000016.021,,,,,0,0,,,M,,M,,*4C
$GPGSA,A,1,,,,,,,,,,,,,,,*1E
$GPGSV,1,1,00*79
$GPRMC,000016.021,V,,,,,0.00,0.00,060180,,,N*46
$GPGGA,000017.021,,,,,0,0,,,M,,M,,*4D
$GPGSA,A,1,,,,,,,,,,,,,,,*1E
$GPGSV,1,1,00*79
$GPRMC,000017.021,V,,,,,0.00,0.00,060180,,,N*47
$GPGGA,000018.021,,,,,0,0,,,M,,M,,*42
$GPGSA,A,1,,,,,,,,,,,,,,,*1E
$GPGSV,1,1,00*79
$GPRMC,000018.021,V,,,,,0.00,0.00,060180,,,N*48
$GPGGA,000019.021,,,,,0,0,,,M,,M,,*43
$GPGSA,A,1,,,,,,,,,,,,,,,*1E
$GPGSV,1,1,00*79
$GPRMC,000019.021,V,,,,,0.00,0.00,060180,,,N*49
$GPGGA,000020.021,,,,,0,0,,,M,,M,,*49
$GPGSA,A,1,,,,,,,,,,,,,,,*1E
$GPGSV,1,1,00*79
$GPRMC,000020.021,V,,,,,0.00,0.00,060180,,,N*43
$GPGGA,000021.021,,,,,0,0,,,M,,M,,*48
$GPGSA,A,1,,,,,,,,,,,,,,,*1E
$GPGSV,1,1,00*79
$GPRMC,000021.021,V,,,,,0.00,0.00,060180,,,N*42
$GPGGA,000022.021,,,,,0,0,,,M,,M,,*4B
$GPGSA,A,1,,,,,,,,,,,,,,,*1E
$GPGSV,1,1,00*79
$GPRMC,000022.021,V,,,,,0.00,0.00,060180,,,N*41
$GPGGA,000023.021,,,,,0,0,,,M,,M,,*4A
$GPGSA,A,1,,,,,,,,,,,,,,,*1E
$GPGSV,1,1,00*79
$GPRMC,000023.021,V,,,,,0.00,0.00,060180,,,N*40
$GPGGA,000024.021,,,,,0,0,,,M,,M,,*4D
$GPGSA,A,1,,,,,,,,,,,,,,,*1E
$GPGSV,1,1,00*79
$GPRMC,000024.021,V,,,,,0.00,0.00,060180,,,N*47
$GPGGA,000025.021,,,,,0,0,,,M,,M,,*4C
$GPGSA,A,1,,,,,,,,,,,,,,,*1E
$GPGSV,1,1,00*79
$GPRMC,000025.021,V,,,,,0.00,0.00,060180,,,N*46
$GPGGA,000026.021,,,,,0,0,,,M,,M,,*4F
$GPGSA,A,1,,,,,,,,,,,,,,,*1E
$GPGSV,1,1,00*79
$GPRMC,000026.021,V,,,,,0.00,0.00,060180,,,N*45
$GPGGA,000027.021,,,,,0,0,,,M,,M,,*4E
$GPGSA,A,1,,,,,,,,,,,,,,,*1E
$GPGSV,1,1,00*79
$GPRMC,000027.021,V,,,,,0.00,0.00,060180,,,N*44
$GPGGA,000028.021,,,,,0,0,,,M,,M,,*41
$GPGSA,A,1,,,,,,,,,,,,,,,*1E
$GPGSV,1,1,00*79
$GPRMC,000028.021,V,,,,,0.00,0.00,060180,,,N*4B
$GPGGA,000029.021,,,,,0,0,,,M,,M,,*40
$GPGSA,A,1,,,,,,,,,,,,,,,*1E
$GPGSV,1,1,00*79
$GPRMC,000029.021,V,,,,,0.00,0.00,060180,,,N*4A
$GPGGA,000030.021,,,,,0,0,,,M,,M,,*48
$GPGSA,A,1,,,,,,,,,,,,,,,*1E
$GPGSV,1,1,00*79
$GPRMC,000030.021,V,,,,,0.00,0.00,060180,,,N*42
$GPGGA,000031.021,,,,,0,0,,,M,,M,,*49
$GPGSA,A,1,,,,,,,,,,,,,,,*1E
$GPGSV,1,1,00*79
$GPRMC,000031.021,V,,,,,0.00,0.00,060180,,,N*43
$GPGGA,000032.021,,,,,0,0,,,M,,M,,*4A
$GPGSA,A,1,,,,,,,,,,,,,,,*1E
$GPGSV,1,1,00*79
$GPRMC,000032.021,V,,,,,0.00,0.00,060180,,,N*40
$GPGGA,000033.021,,,,,0,0,,,M,,M,,*4B
$GPGSA,A,1,,,,,,,,,,,,,,,*1E
$GPGSV,1,1,00*79
$GPRMC,000033.021,V,,,,,0.00,0.00,060180,,,N*41
$GPGGA,000034.021,,,,,0,0,,,M,,M,,*4C
$GPGSA,A,1,,,,,,,,,,,,,,,*1E
$GPGSV,1,1,00*79
$GPRMC,000034.021,V,,,,,0.00,0.00,060180,,,N*46
$GPGGA,000035.021,,,,,0,0,,,M,,M,,*4D
$GPGSA,A,1,,,,,,,,,,,,,,,*1E
$GPGSV,1,1,00*79
$GPRMC,000035.021,V,,,,,0.00,0.00,060180,,,N*47
$GPGGA,000036.021,,,,,0,0,,,M,,M,,*4E
$GPGSA,A,1,,,,,,,,,,,,,,,*1E
$GPGSV,1,1,00*79
$GPRMC,000036.021,V,,,,,0.00,0.00,060180,,,N*44
$GPGGA,000037.021,,,,,0,0,,,M,,M,,*4F
$GPGSA,A,1,,,,,,,,,,,,,,,*1E
$GPGSV,1,1,01,02,,,35*7C
$GPRMC,000037.021,V,,,,,0.00,0.00,060180,,,N*45
$GPGGA,000038.021,,,,,0,0,,,M,,M,,*40
$GPGSA,A,1,,,,,,,,,,,,,,,*1E
$GPGSV,1,1,01,02,,,35*7C
$GPRMC,000038.021,V,,,,,0.00,0.00,060180,,,N*4A
$GPGGA,000039.021,,,,,0,0,,,M,,M,,*41
$GPGSA,A,1,,,,,,,,,,,,,,,*1E
$GPGSV,1,1,01,02,,,34*7D
$GPRMC,000039.021,V,,,,,0.00,0.00,060180,,,N*4B
$GPGGA,000040.021,,,,,0,0,,,M,,M,,*4F
$GPGSA,A,1,,,,,,,,,,,,,,,*1E
$GPGSV,1,1,01,02,,,35*7C
$GPRMC,000040.021,V,,,,,0.00,0.00,060180,,,N*45
$GPGGA,000041.021,,,,,0,0,,,M,,M,,*4E
$GPGSA,A,1,,,,,,,,,,,,,,,*1E
$GPGSV,1,1,00*79
$GPRMC,000041.021,V,,,,,0.00,0.00,060180,,,N*44
$GPGGA,000042.021,,,,,0,0,,,M,,M,,*4D
$GPGSA,A,1,,,,,,,,,,,,,,,*1E
$GPGSV,1,1,01,02,,,35*7C
$GPRMC,000042.021,V,,,,,0.00,0.00,060180,,,N*47
$GPGGA,000043.021,,,,,0,0,,,M,,M,,*4C
$GPGSA,A,1,,,,,,,,,,,,,,,*1E
$GPGSV,1,1,01,02,,,35*7C
$GPRMC,000043.021,V,,,,,0.00,0.00,060180,,,N*46
$GPGGA,000044.021,,,,,0,0,,,M,,M,,*4B
$GPGSA,A,1,,,,,,,,,,,,,,,*1E
$GPGSV,1,1,01,02,,,34*7D
$GPRMC,000044.021,V,,,,,0.00,0.00,060180,,,N*41
$GPGGA,000044.707,,,,,0,0,,,M,,M,,*48
$GPGSA,A,1,,,,,,,,,,,,,,,*1E
$GPGSV,1,1,01,02,,,35*7C
$GPRMC,000044.707,V,,,,,0.00,0.00,060180,,,N*42
$GPGGA,000045.707,,,,,0,0,,,M,,M,,*49
$GPGSA,A,1,,,,,,,,,,,,,,,*1E
$GPGSV,1,1,01,02,,,34*7D
$GPRMC,000045.707,V,,,,,0.00,0.00,060180,,,N*43
$GPGGA,133757.101,,,,,0,0,,,M,,M,,*4C
$GPGSA,A,1,,,,,,,,,,,,,,,*1E
$GPGSV,1,1,01,02,,,34*7D
$GPRMC,133757.101,V,,,,,0.00,0.00,090180,,,N*49
$GPGGA,133758.101,,,,,0,0,,,M,,M,,*43
$GPGSA,A,1,,,,,,,,,,,,,,,*1E
$GPGSV,1,1,01,02,,,35*7C
$GPRMC,133758.101,V,,,,,0.00,0.00,090180,,,N*46
$GPGGA,133759.101,,,,,0,0,,,M,,M,,*42
$GPGSA,A,1,,,,,,,,,,,,,,,*1E
$GPGSV,1,1,01,02,,,33*7A
$GPRMC,133759.101,V,,,,,0.00,0.00,090180,,,N*47
$GPGGA,133800.101,,,,,0,0,,,M,,M,,*41
$GPGSA,A,1,,,,,,,,,,,,,,,*1E
$GPGSV,1,1,01,02,,,34*7D
$GPRMC,133800.101,V,,,,,0.00,0.00,090180,,,N*44
$GPGGA,133801.088,,,,,0,0,,,M,,M,,*40
$GPGSA,A,1,,,,,,,,,,,,,,,*1E
$GPGSV,1,1,01,02,,,35*7C
$GPRMC,133801.088,V,,,,,0.00,0.00,090180,,,N*45
$GPGGA,133802.088,,,,,0,0,,,M,,M,,*43
$GPGSA,A,1,,,,,,,,,,,,,,,*1E
$GPGSV,1,1,01,02,,,35*7C
$GPRMC,133802.088,V,,,,,0.00,0.00,090180,,,N*46
Disconnecting port COM3.

8,2ð$GPGGA,134933.000,4318.0803,N,01344.0540,E,1,5,1.90,10.6,M,44.5,M,,*6A
$GPGSA,A,3,02,05,28,20,13,,,,,,,,2.84,1.90,2.10*0A
$GPGSV,3,1,10,30,76,042,19,05,62,264,42,28,44,147,24,07,38,054,*72
$GPGSV,3,2,10,13,36,295,20,20,21,314,16,09,19,104,21,02,06,227,21*75
$GPGSV,3,3,10,08,06,064,,15,05,294,23*7B
$GPRMC,134933.000,A,4318.0803,N,01344.0540,E,0.56,6.12,180117,,,A*6F
$GPGGA,134934.000,4318.0804,N,01344.0540,E,1,5,1.90,10.6,M,44.5,M,,*6A
$GPGSA,A,3,02,05,28,20,13,,,,,,,,2.84,1.90,2.10*0A

Sending AT query..
$GPGSV,3,1,10,30,76,042,19,05,d,l4hXÉ8,44,147,24,07,38,054,*72
$GPGSV,3,2,10,13,36,295,20,20,21,314,16,09,19,104,21,02,06,227,21*75
$GPGSV,3,3,10,08,06,064,,15,05,294,23*7B
$GPRMC,134934.000,A,4318.0804,N,01344.0540,E,0.61,15.64,180117,,,A*58
AT
OK
Successful response for AT query..

$GPGGA,134935.000,4318.0810,N,01344.0544,E,1,5,1.63,10.6,M,44.5,M,,*66
$GPGSA,A,3,02,05,28,20,13,,,,,,,,1.86,1.63,0.90*0D
$GPGSV,3,1,10,30,76`4X1X0X2,l4ÑX2±44,147,24,07,38,054,*72
$GPGSV,3,2,10,13,36,295,20,20,21,314,16,09,19,104,21,02,06,227,21*75
$GPGSV,3,3,10,08,06,064,,15,05,294,23*7B
$GPRMC,134935.000,A,4318.0810,N,01344.0544,E,0.70,23.40,180117,,,A*5B
AT+CGMM
SIMCOM_SIM808

OK
Model Number : SIMCOM_SIM808
$GPGGA,134936.000,4318.0814,N,01344.0547,E,1,5,1.63,10.5,M,44.5,M,,*61
$GPGSA,A,3,02,05,28,20,13,,,,,,,,1.86,1.63,0.90*0D
$GPGSV,3,1,10,30,76,042,19,05,62,264,42,28,44,147,24,07,38,054,*72
$GPGSV,3,2,10,13,36,295,20,20,21,314,16,09,19,104,21,02,06,227,21*75
$GPGSV,3,3,10,08,06,064,,15,05,294,23*7B
$GPRMC,134936.000,A,4318.0814,N,01344.0547,E,0.76,25.72,180117,,,A*5E
$GPGGA,134937.000,4318.0819,N,01344.0549,E,1,5,1.63,10.5,M,44.5,M,,*63
$GPGSA,A,3,02,05,28,20,13,,,,,,,,1.86,1.63,0.90*0D
$GPGSV,3,1,10,30,76,042,r,j,d,l4i,2X4Y47,24,07,38,054,*71
$GPGSV,3,2,10,13,36,295,19,20,21,314,16,09,19,104,21,02,06,227,21*7F
$GPGSV,3,3,10,08,06,064,,15,05,294,23*7B
$GPRMC,134937.000,A,4318.0819,N,01344.0549,E,0.85,19.26,180117,,,A*5E
AT+CGMI
SIMCOM_Ltd

OK
Manufacturer : SIMCOM_Ltd
$GPGGA,134938.000,4318.0824,N,01344.0551,E,1,5,1.63,10.4,M,44.5,M,,*6A
$GPGSA,A,3,02,05,28,20,13,,,,,,,,1.86,1.63,0.90*0D
$GPGSV,3,1,10,30,76,042,19,05,62,264,42,28,44,147,23,07,38,054,*75
$GPGSV,3,2,10,13,36,295,19,20,21,314,16,09,19,104,21,02,06,227,21*7F
$GPGSV,3,3,10,08,06,064,,15,05,294,23*7B
$GPRMC,134938.000,A,4318.0824,N,01344.0551,E,0.95,20.59,180117,,,A*55
$GPGGA,134939.000,4318.0829,N,01344.0552,E,1,5,1.63,10.4,M,44.5,M,,*65
$GPGSA,A,3,02,05,28,20,13,,,,,,,,1.86,1.63,0.90*0D
$GPGSV,3,1,10,30,76,042,18,05,62,264,42,28,44,146,23,07,38,054,*75
$GPGSV,3,2,10,13,36,295,19,20,21,314,16,09,19,104,21,02,06,227,21*7F
$GPGSV,3,3,10,08,06,064,,15,05,294,23*7B
$GPRMC,134939.000,A,4318.0829,N,01344.0552,E,1.01,17.59,180117,,,A*52
$GPGGA,134940.000,4318.0833,N,01344.0554,E,1,5,1.63,10.3,M,44.5,M,,*61
$GPGSA,A,3,02,05,28,20,13,,,,,,,,1.86,1.63,0.90*0D
$GPGSV,3,1,10,30,76,042,17,05,62,264,42,28,44,146,23,07,38,054,*7A
$GPGSV,3,2,10,13,36,295,18,20,21,314,16,09,19,104,21,02,06,227,21*7E
$GPGSV,3,3,10,08,06,064,,15,05,294,23*7B
$GPRMC,134940.000,A,4318.0833,N,01344.0554,E,1.03,16.17,180117,,,A*58
$GPGGA,134941.000,4318.0837,N,01344.0556,E,1,5,1.63,10.2,M,44.5,M,,*67
$GPGSA,A,3,02,05,28,20,13,,,,,,,,1.86,1.63,0.90*0D
$GPGSV,3,1,10,30,76,042,17,05,62,264,42,28,44,146,23,07,38,054,*7A
$GPGSV,3,2,10,13,36,295,18,20,21,314,16,09,19,104,20,02,06,227,20*7E
$GPGSV,3,3,10,08,06,064,,15,05,294,23*7B
$GPRMC,134941.000,A,4318.0837,N,01344.0556,E,1.06,16.43,180117,,,A*5B
Getting GPS Status..

AT+CGPSSTATUS?
+CGPSSTATUS: Location 3D Fix

OK
GPS 3D fix
$GPGGA,134942.000,4318.0841,N,01344.0557,E,1,5,1.63,10.2,M,44.5,M,,*64
$GPGSA,A,3,02,05,28,20,13,,,,,,,,1.86,1.63,0.90*0D
$GPGSV,3,1,10,30,76,042,16,05,62,264,42,28,44,146,22,07,38,054,*7A
$GPGSV,3,2,10,13,36,295,18,20,21,314,16,09,19,104,20,02,06,227,20*7E
$GPGSV,3,3,10,08,06,064,,15,05,294,23*7B
$GPRMC,134942.000,A,4318.0841,N,01344.0557,E,1.06,16.79,180117,,,A*51
$GPGGA,134943.000,4318.0844,N,01344.0557,E,1,5,1.63,10.2,M,44.5,M,,*60
$GPGSA,A,3,02,05,28,20,13,,,,,,,,1.86,1.63,0.90*0D
$GPGSV,3,1,10,30,76,042,15,05,62,264,42,28,44,146,22,07,38,054,*79
$GPGSV,3,2,10,13,36,295,18,20,21,314,16,09,19,104,20,02,06,227,20*7E
$GPGSV,3,3,10,08,06,064,,15,05,294,23*7B
$GPRMC,134943.000,A,4318.0844,N,01344.0557,E,1.04,15.61,180117,,,A*5D
$GPGGA,134944.000,4318.0846,N,01344.0557,E,1,5,1.63,10.1,M,44.5,M,,*66
$GPGSA,A,3,02,05,28,20,13,,,,,,,,1.87,1.63,0.90*0C
$GPGSV,3,1,10,30,76,042,15,05,62,264,42,28,44,146,22,07,38,054,*79
$GPGSV,3,2,10,13,36,295,17,20,21,314,16,09,19,104,20,02,06,227,20*71
$GPGSV,3,3,10,08,06,064,,15,05,294,23*7B
$GPRMC,134944.000,A,4318.0846,N,01344.0557,E,1.02,14.12,180117,,,A*5B
$GPGGA,134945.000,4318.0848,N,01344.0558,E,1,5,1.91,10.1,M,44.5,M,,*6B
$GPGSA,A,3,02,05,28,20,13,,,,,,,,2.84,1.91,2.10*0B
$GPGSV,3,1,10,30,76,042,15,05,62,264,42,28,44,146,21,07,38,054,*7A
$GPGSV,3,2,10,13,36,295,17,20,21,314,16,09,19,104,20,02,06,227,20*71
$GPGSV,3,3,10,08,06,064,,15,05,294,23*7B
$GPRMC,134945.000,A,4318.0848,N,01344.0558,E,1.00,13.49,180117,,,A*50
$GPGGA,134946.000,4318.0850,N,01344.0558,E,1,5,1.90,10.1,M,44.5,M,,*60
$GPGSA,A,3,02,05,28,20,13,,,,,,,,2.84,1.90,2.10*0A
$GPGSV,3,1,10,30,76,042,15,05,62,264,42,28,44,146,21,07,38,054,*7A
$GPGSV,3,2,10,13,36,295,17,20,21,314,15,09,19,104,20,02,06,227,20*72
$GPGSV,3,3,10,08,06,064,,15,05,294,23*7B
$GPRMC,134946.000,A,4318.0850,N,01344.0558,E,0.98,12.64,180117,,,A*54
$GPGGA,134947.000,4318.0851,N,01344.0558,E,1,5,1.91,10.1,M,44.5,M,,*61
$GPGSA,A,3,02,05,28,20,13,,,,,,,,2.84,1.91,2.10*0B
$GPGSV,3,1,10,30,76,042,15,05,62,264,42,28,44,146,20,07,38,054,*7B
$GPGSV,3,2,10,13,36,295,16,20,21,314,15,09,19,104,19,02,06,227,20*79
$GPGSV,3,3,10,08,06,064,,15,05,294,23*7B
$GPRMC,134947.000,A,4318.0851,N,01344.0558,E,0.96,13.26,180117,,,A*5D
$GPGGA,134948.000,4318.0854,N,01344.0560,E,1,5,1.91,10.0,M,44.5,M,,*61
$GPGSA,A,3,02,05,28,20,13,,,,,,,,2.84,1.91,2.10*0B
$GPGSV,3,1,10,30,76,042,15,05,62,264,42,28,44,146,19,07,38,054,*71
$GPGSV,3,2,10,13,36,295,17,20,21,314,15,09,19,104,19,02,06,227,19*72
$GPGSV,3,3,10,08,06,064,,15,05,294,23*7B
$GPRMC,134948.000,A,4318.0854,N,01344.0560,E,0.98,15.00,180117,,,A*50
$GPGGA,134949.000,4318.0856,N,01344.0561,E,1,5,1.91,10.0,M,44.5,M,,*63
$GPGSA,A,3,02,05,28,20,13,,,,,,,,2.84,1.91,2.10*0B
$GPGSV,3,1,10,30,76,042,15,05,62,264,42,28,44,146,19,07,38,054,*71
$GPGSV,3,2,10,13,36,295,14,20,21,314,16,09,19,104,19,02,06,227,19*72
$GPGSV,3,3,10,08,06,064,,15,05,294,23*7B
$GPRMC,134949.000,A,4318.0856,N,01344.0561,E,1.00,16.03,180117,,,A*52
$GPGGA,134950.000,4318.0858,N,01344.0562,E,1,5,1.63,10.0,M,44.5,M,,*6B
$GPGSA,A,3,02,05,28,20,13,,,,,,,,1.87,1.63,0.90*0C
$GPGSV,3,1,10,30,76,042,15,05,62,264,42,28,44,146,19,07,38,054,*71
$GPGSV,3,2,10,13,36,295,15,20,21,314,16,09,19,104,19,02,06,227,19*73
$GPGSV,3,3,10,08,06,064,,15,05,294,23*7B
$GPRMC,134950.000,A,4318.0858,N,01344.0562,E,1.00,15.71,180117,,,A*51
$GPGGA,134951.000,4318.0860,N,01344.0564,E,1,5,1.63,9.9,M,44.5,M,,*56
$GPGSA,A,3,02,05,28,20,13,,,,,,,,1.86,1.63,0.90*0D
$GPGSV,3,1,10,30,76,042,15,05,62,263,42,28,44,146,19,07,38,054,*76
$GPGSV,3,2,10,13,36,295,14,20,21,314,16,09,19,104,19,02,06,227,19*72
$GPGSV,3,3,10,08,06,064,,15,05,294,23*7B
$GPRMC,134951.000,A,4318.0860,N,01344.0564,E,0.99,17.33,180117,,,A*58
$GPGGA,134952.000,4318.0861,N,01344.0564,E,1,5,1.63,9.9,M,44.5,M,,*54
$GPGSA,A,3,02,05,28,20,13,,,,,,,,1.87,1.63,0.90*0C
$GPGSV,3,1,10,30,76,042,15,05,62,263,42,28,44,146,19,07,38,054,*76
$GPGSV,3,2,10,13,36,295,14,20,21,314,16,09,19,104,19,02,06,227,19*72
$GPGSV,3,3,10,08,06,064,,15,05,294,23*7B
$GPRMC,134952.000,A,4318.0861,N,01344.0564,E,0.98,16.49,180117,,,A*57
$GPGGA,134953.000,4318.0864,N,01344.0565,E,1,5,1.63,9.9,M,44.5,M,,*51
$GPGSA,A,3,02,05,28,20,13,,,,,,,,1.87,1.63,0.90*0C
$GPGSV,3,1,10,30,76,042,15,05,62,263,42,28,44,146,19,07,38,054,*76
$GPGSV,3,2,10,13,36,295,14,20,21,314,16,09,19,104,19,02,06,227,19*72
$GPGSV,3,3,10,08,06,064,,15,05,294,23*7B
$GPRMC,134953.000,A,4318.0864,N,01344.0565,E,1.01,14.26,180117,,,A*58
$GPGGA,134954.000,4318.0858,N,01344.0563,E,1,5,1.91,10.0,M,44.5,M,,*63
$GPGSA,A,3,02,05,28,20,13,,,,,,,,2.84,1.91,2.10*0B
$GPGSV,3,1,10,30,76,042,15,05,62,263,42,28,44,146,19,07,38,054,*76
$GPGSV,3,2,10,13,36,295,17,20,21,314,16,09,19,104,20,02,06,227,19*7B
$GPGSV,3,3,10,08,06,063,,15,05,294,23*7C
$GPRMC,134954.000,A,4318.0858,N,01344.0563,E,0.89,14.77,180117,,,A*53
$GPGGA,134955.000,4318.0851,N,01344.0561,E,1,5,1.91,10.2,M,44.5,M,,*6B
$GPGSA,A,3,02,05,28,20,13,,,,,,,,2.84,1.91,2.10*0B
$GPGSV,3,1,10,30,76,042,16,05,62,263,41,28,44,146,19,07,38,054,*76
$GPGSV,3,2,10,13,36,295,14,20,21,314,16,09,19,104,20,02,06,227,19*78
$GPGSV,3,3,10,08,06,063,,15,05,294,22*7D
$GPRMC,134955.000,A,4318.0851,N,01344.0561,E,0.76,15.61,180117,,,A*5F
$GPGGA,134956.000,4318.0852,N,01344.0564,E,1,5,1.63,10.1,M,44.5,M,,*60
$GPGSA,A,3,02,05,28,20,13,,,,,,,,1.87,1.63,0.90*0C
$GPGSV,3,1,10,30,76,042,16,05,62,263,41,28,44,146,19,07,38,054,*76
$GPGSV,3,2,10,13,36,295,13,20,21,314,16,09,19,104,20,02,06,227,19*7F
$GPGSV,3,3,10,08,06,063,,15,05,294,22*7D
$GPRMC,134956.000,A,4318.0852,N,01344.0564,E,0.75,20.35,180117,,,A*5E
$GPGGA,134957.000,4318.0853,N,01344.0565,E,1,5,1.63,10.1,M,44.5,M,,*61
$GPGSA,A,3,02,05,28,20,13,,,,,,,,1.87,1.63,0.90*0C
$GPGSV,3,1,10,30,76,042,15,05,62,263,41,28,44,146,19,07,38,054,*75
$GPGSV,3,2,10,13,36,295,14,20,21,314,16,09,19,104,20,02,06,227,19*78
$GPGSV,3,3,10,08,06,063,,15,05,294,22*7D
$GPRMC,134957.000,A,4318.0853,N,01344.0565,E,0.71,21.63,180117,,,A*59
$GPGGA,134958.000,4318.0853,N,01344.0566,E,1,5,1.63,10.1,M,44.5,M,,*6D
$GPGSA,A,3,02,05,28,20,13,,,,,,,,1.86,1.63,0.90*0D
$GPGSV,3,1,10,30,76,042,14,05,62,263,41,28,44,146,19,07,38,054,*74
$GPGSV,3,2,10,13,36,295,15,20,21,314,17,09,19,104,20,02,06,227,19*78
$GPGSV,3,3,10,08,06,063,,15,05,294,22*7D
$GPRMC,134958.000,A,4318.0853,N,01344.0566,E,0.67,24.38,180117,,,A*59
GPS Reset in COLD start mode..

$GPGGA,134959.000,4318.0849,N,01344.0567,E,1,5,1.63,10.1,M,44.5,M,,*66
$GPGSA,A,3,02,05,p,`,f,X,X,Åp7b.Í`.`*5H GSV,3,1,10,30,76,042,13,05,62,263,41,28,44,146,19,07,38,054,*73
$GPGSV,3,2,10,13,36,296,14,20,21,314,17,09,19,104,20,02,06,227,19*7A
$GPGSV,3,3,10,08,06,063,,15,05,294,22*7D
$GPRMC,134959.000,A,4318.0849,N,01344.0567,E,0.59,29.72,180117,,,A*5C
AT+CGPSRST=0
OK
GPS COLD start sucessful

$PMTK011,MTKGPS*08
$PMTK010,001*2E
$PMTK010,002*2D
$GPGGA,135001.141,,,,,0,0,,,M,,M,,*4A
$GPGSA,A,1,,,,,,,,,,,,,,,*1E
$GPGSV,1,1,00*79
$GPRMC,135001.141,V,,,,,0.00,0.00,180117,,,N*41
$GPGGA,135002.141,,,,,0,0,,,M,,M,,*49
$GPGSA,A,1,,,,,,,,,,,,,,,*1E
$GPGSV,1,1,01,05,,,41*78
$GPRMC,135002.141,V,,,,,0.00,0.00,180117,,,N*42
$GPGGA,135003.141,,,,,0,0,,,M,,M,,*48
$GPGSA,A,1,,,,,,,,,,,,,,,*1E
$GPGSV,1,1,01,05,,,40*79
$GPRMC,135003.141,V,,,,,0.00,0.00,180117,,,N*43
$GPGGA,135004.141,,,,,0,0,,,M,,M,,*4F
$GPGSA,A,1,,,,,,,,,,,,,,,*1E
$GPGSV,1,1,01,05,,,42*7B
$GPRMC,135004.141,V,,,,,0.00,0.00,180117,,,N*44
$GPGGA,135005.141,,,,,0,0,,,M,,M,,*4E
$GPGSA,A,1,,,,,,,,,,,,,,,*1E
$GPGSV,1,1,01,05,,,41*78
$GPRMC,135005.141,V,,,,,0.00,0.00,180117,,,N*45
$GPGGA,135006.141,,,,,0,0,,,M,,M,,*4D
$GPGSA,A,1,,,,,,,,,,,,,,,*1E
$GPGSV,1,1,01,05,,,41*78
$GPRMC,135006.141,V,,,,,0.00,0.00,180117,,,N*46
$GPGGA,135007.141,,,,,0,0,,,M,,M,,*4C
$GPGSA,A,1,,,,,,,,,,,,,,,*1E
$GPGSV,1,1,01,05,,,41*78
$GPRMC,135007.141,V,,,,,0.00,0.00,180117,,,N*47
$GPGGA,135008.141,,,,,0,0,,,M,,M,,*43
$GPGSA,A,1,,,,,,,,,,,,,,,*1E
$GPGSV,1,1,01,05,,,41*78
$GPRMC,135008.141,V,,,,,0.00,0.00,180117,,,N*48
$GPGGA,135009.141,,,,,0,0,,,M,,M,,*42
$GPGSA,A,1,,,,,,,,,,,,,,,*1E
$GPGSV,1,1,02,05,,,41,28,,,20*73
$GPRMC,135009.141,V,,,,,0.00,0.00,180117,,,N*49
$GPGGA,135010.141,,,,,0,0,,,M,,M,,*4A
$GPGSA,A,1,,,,,,,,,,,,,,,*1E
$GPGSV,1,1,02,05,,,41,28,,,21*72
$GPRMC,135010.141,V,,,,,0.00,0.00,180117,,,N*41
$GPGGA,135011.141,,,,,0,0,,,M,,M,,*4B
$GPGSA,A,1,,,,,,,,,,,,,,,*1E
$GPGSV,1,1,02,05,,,41,28,,,20*73
$GPRMC,135011.141,V,,,,,0.00,0.00,180117,,,N*40
$GPGGA,135012.141,,,,,0,0,,,M,,M,,*48
$GPGSA,A,1,,,,,,,,,,,,,,,*1E
$GPGSV,1,1,02,05,,,41,28,,,20*73
$GPRMC,135012.141,V,,,,,0.00,0.00,180117,,,N*43
$GPGGA,135013.092,,,,,0,0,,,M,,M,,*46
$GPGSA,A,1,,,,,,,,,,,,,,,*1E
$GPGSV,1,1,02,05,,,41,28,,,20*73
$GPRMC,135013.092,V,,,,,0.00,0.00,180117,,,N*4D
Enabling NMEA output..

AT+CGPSOUT=255
OK
NMEA port is enabled

$GPGGA,135014.092,,,,,0,0,,,M,,M,,*41
$GPGSA,A,1,,,,,,,,,,,,,,,*1E
$GPGSV,1,1,02,05,,,41,28,,,20*73
$GPRMC,135014.092,V,,,,,0.00,0.00,180117,,,N*4A
$GPGGA,135015.097,,,,,0,0,,,M,,M,,*45
$GPGSA,A,1,,,,,,,,,,,,,,,*1E
$GPGSV,1,1,02,05,,,41,28,,,20*73
$GPRMC,135015.097,V,,,,,0.00,0.00,180117,,,N*4E
$GPGGA,135016.097,,,,,0,0,,,M,,M,,*46
$GPGSA,A,1,,,,,,,,,,,,,,,*1E
$GPGSV,1,1,02,05,,,41,28,,,20*73
$GPRMC,135016.097,V,,,,,0.00,0.00,180117,,,N*4D
$GPGGA,135017.097,,,,,0,0,,,M,,M,,*47
$GPGSA,A,1,,,,,,,,,,,,,,,*1E
$GPGSV,1,1,02,05,,,41,28,,,20*73
$GPRMC,135017.097,V,,,,,0.00,0.00,180117,,,N*4C
$GPGGA,135018.097,,,,,0,0,,,M,,M,,*48
$GPGSA,A,1,,,,,,,,,,,,,,,*1E
$GPGSV,1,1,02,05,,,41,28,,,20*73
$GPRMC,135018.097,V,,,,,0.00,0.00,180117,,,N*43
$GPGGA,135019.085,,,,,0,0,,,M,,M,,*4A
$GPGSA,A,1,,,,,,,,,,,,,,,*1E
$GPGSV,1,1,02,05,,,41,28,,,19*79
$GPRMC,135019.085,V,,,,,0.00,0.00,180117,,,N*41
$GPGGA,135020.085,,,,,0,0,,,M,,M,,*40
$GPGSA,A,1,,,,,,,,,,,,,,,*1E
$GPGSV,1,1,02,05,,,41,28,,,19*79
$GPRMC,135020.085,V,,,,,0.00,0.00,180117,,,N*4B
$GPGGA,135021.085,,,,,0,0,,,M,,M,,*41
$GPGSA,A,1,,,,,,,,,,,,,,,*1E
$GPGSV,1,1,02,05,,,41,28,,,19*79
$GPRMC,135021.085,V,,,,,0.00,0.00,180117,,,N*4A
$GPGGA,135022.085,,,,,0,0,,,M,,M,,*42
$GPGSA,A,1,,,,,,,,,,,,,,,*1E
$GPGSV,1,1,02,05,,,41,28,,,19*79
$GPRMC,135022.085,V,,,,,0.00,0.00,180117,,,N*49
$GPGGA,135023.085,,,,,0,0,,,M,,M,,*43
$GPGSA,A,1,,,,,,,,,,,,,,,*1E
$GPGSV,1,1,02,05,,,41,28,,,19*79
$GPRMC,135023.085,V,,,,,0.00,0.00,180117,,,N*48
$GPGGA,135024.085,,,,,0,0,,,M,,M,,*44
$GPGSA,A,1,,,,,,,,,,,,,,,*1E
$GPGSV,1,1,02,05,,,41,28,,,19*79
$GPRMC,135024.085,V,,,,,0.00,0.00,180117,,,N*4F
$GPGGA,135025.085,,,,,0,0,,,M,,M,,*45
$GPGSA,A,1,,,,,,,,,,,,,,,*1E
$GPGSV,1,1,02,05,,,41,28,,,18*78
$GPRMC,135025.085,V,,,,,0.00,0.00,180117,,,N*4E
$GPGGA,135026.085,,,,,0,0,,,M,,M,,*46
$GPGSA,A,1,,,,,,,,,,,,,,,*1E
$GPGSV,1,1,02,05,,,41,28,,,18*78
$GPRMC,135026.085,V,,,,,0.00,0.00,180117,,,N*4D
$GPGGA,135027.085,,,,,0,0,,,M,,M,,*47
$GPGSA,A,1,,,,,,,,,,,,,,,*1E
$GPGSV,1,1,02,05,,,41,28,,,17*77
$GPRMC,135027.085,V,,,,,0.00,0.00,180117,,,N*4C
$GPGGA,135028.085,,,,,0,0,,,M,,M,,*48
$GPGSA,A,1,,,,,,,,,,,,,,,*1E
$GPGSV,1,1,02,05,,,41,28,,,17*77
$GPRMC,135028.085,V,,,,,0.00,0.00,180117,,,N*43
$GPGGA,135029.085,,,,,0,0,,,M,,M,,*49
$GPGSA,A,1,,,,,,,,,,,,,,,*1E
$GPGSV,1,1,02,05,,,41,28,,,17*77
$GPRMC,135029.085,V,,,,,0.00,0.00,180117,,,N*42
$GPGGA,135030.085,,,,,0,0,,,M,,M,,*41
$GPGSA,A,1,,,,,,,,,,,,,,,*1E
$GPGSV,1,1,02,05,,,41,28,,,17*77
$GPRMC,135030.085,V,,,,,0.00,0.00,180117,,,N*4A
Turning off GPS..

AT+CGPSPWR=0
OK
GPS Turned off

Turning on GPS..

AT+CGPSPWR=1
OK
GPS Turned on

$PMTK011,MTKGPS*08
$PMTK010,001*2E
$PMTK010,002*2D
$GPGGA,135037.211,,,,,0,0,,,M,,M,,*49
$GPGSA,A,1,,,,,,,,,,,,,,,*1E
$GPGSV,1,1,00*79
$GPRMC,135037.211,V,,,,,0.00,0.00,180117,,,N*42
$GPGGA,135038.211,,,,,0,0,,,M,,M,,*46
$GPGSA,A,1,,,,,,,,,,,,,,,*1E
$GPGSV,1,1,01,05,,,41*78
$GPRMC,135038.211,V,,,,,0.00,0.00,180117,,,N*4D
$GPGGA,135039.211,,,,,0,0,,,M,,M,,*47
$GPGSA,A,1,,,,,,,,,,,,,,,*1E
$GPGSV,1,1,01,05,,,40*79
$GPRMC,135039.211,V,,,,,0.00,0.00,180117,,,N*4C
$GPGGA,135040.211,,,,,0,0,,,M,,M,,*49
$GPGSA,A,1,,,,,,,,,,,,,,,*1E
$GPGSV,1,1,01,05,,,41*78
$GPRMC,135040.211,V,,,,,0.00,0.00,180117,,,N*42
$GPGGA,135041.211,,,,,0,0,,,M,,M,,*48
$GPGSA,A,1,,,,,,,,,,,,,,,*1E
$GPGSV,1,1,01,05,,,41*78
$GPRMC,135041.211,V,,,,,0.00,0.00,180117,,,N*43
$GPGGA,135042.211,,,,,0,0,,,M,,M,,*4B
$GPGSA,A,1,,,,,,,,,,,,,,,*1E
$GPGSV,1,1,01,05,,,39*77
$GPRMC,135042.211,V,,,,,0.00,0.00,180117,,,N*40
$GPGGA,135043.211,,,,,0,0,,,M,,M,,*4A
$GPGSA,A,1,,,,,,,,,,,,,,,*1E
$GPGSV,1,1,01,05,,,40*79
$GPRMC,135043.211,V,,,,,0.00,0.00,180117,,,N*41
$GPGGA,135044.211,,,,,0,0,,,M,,M,,*4D
$GPGSA,A,1,,,,,,,,,,,,,,,*1E
$GPGSV,1,1,01,05,,,40*79
$GPRMC,135044.211,V,,,,,0.00,0.00,180117,,,N*46
$GPGGA,135045.211,,,,,0,0,,,M,,M,,*4C
$GPGSA,A,1,,,,,,,,,,,,,,,*1E
$GPGSV,1,1,01,05,,,40*79
$GPRMC,135045.211,V,,,,,0.00,0.00,180117,,,N*47
$GPGGA,135046.211,,,,,0,0,,,M,,M,,*4F
$GPGSA,A,1,,,,,,,,,,,,,,,*1E
$GPGSV,1,1,01,05,,,40*79
$GPRMC,135046.211,V,,,,,0.00,0.00,180117,,,N*44
$GPGGA,135047.211,,,,,0,0,,,M,,M,,*4E
$GPGSA,A,1,,,,,,,,,,,,,,,*1E
$GPGSV,1,1,01,05,,,40*79
$GPRMC,135047.211,V,,,,,0.00,0.00,180117,,,N*45
$GPGGA,135048.211,,,,,0,0,,,M,,M,,*41
$GPGSA,A,1,,,,,,,,,,,,,,,*1E
$GPGSV,1,1,01,05,,,40*79
$GPRMC,135048.211,V,,,,,0.00,0.00,180117,,,N*4A
$GPGGA,135049.082,,,,,0,0,,,M,,M,,*48
$GPGSA,A,1,,,,,,,,,,,,,,,*1E
$GPGSV,1,1,01,05,,,40*79
$GPRMC,135049.082,V,,,,,0.00,0.00,180117,,,N*43
$GPGGA,135050.082,,,,,0,0,,,M,,M,,*40
$GPGSA,A,1,,,,,,,,,,,,,,,*1E
$GPGSV,1,1,01,05,,,40*79
$GPRMC,135050.082,V,,,,,0.00,0.00,180117,,,N*4B
Enabling NMEA output..

éêT)©r‚ºbÄ‰‰		‰‰©Š‰©Š‰I‰¢j
$GPGSA,A,1,,,,,,,,,,,,,,,*1E
$GPGSV,1,1,01,05,,,40*79
$GPRMC,135051.087,V,,,,,0.00,0.00,180117,,,N*4F
AT+CGPSOUT=255
OK
NMEA port is enabled

$GPGGA,135052.087,,,,,0,0,,,M,,M,,*47
$GPGSA,A,1,,,,,,,,,,,,,,,*1E
$GPGSV,1,1,01,05,,,40*79
$GPRMC,135052.087,V,,,,,0.00,0.00,180117,,,N*4C
$GPGGA,135053.087,,,,,0,0,,,M,,M,,*46
$GPGSA,A,1,,,,,,,,,,,,,,,*1E
$GPGSV,1,1,01,05,,,40*79
$GPRMC,135053.087,V,,,,,0.00,0.00,180117,,,N*4D
$GPGGA,135054.087,,,,,0,0,,,M,,M,,*41
$GPGSA,A,1,,,,,,,,,,,,,,,*1E
$GPGSV,1,1,01,05,,,40*79
$GPRMC,135054.087,V,,,,,0.00,0.00,180117,,,N*4A
$GPGGA,135055.086,,,,,0,0,,,M,,M,,*41
$GPGSA,A,1,,,,,,,,,,,,,,,*1E
$GPGSV,1,1,01,05,,,40*79
$GPRMC,135055.086,V,,,,,0.00,0.00,180117,,,N*4A
$GPGGA,135056.086,,,,,0,0,,,M,,M,,*42
$GPGSA,A,1,,,,,,,,,,,,,,,*1E
$GPGSV,1,1,01,05,,,40*79
$GPRMC,135056.086,V,,,,,0.00,0.00,180117,,,N*49
$GPGGA,135057.086,,,,,0,0,,,M,,M,,*43
$GPGSA,A,1,,,,,,,,,,,,,,,*1E
$GPGSV,1,1,01,05,,,40*79
$GPRMC,135057.086,V,,,,,0.00,0.00,180117,,,N*48
$GPGGA,135058.086,,,,,0,0,,,M,,M,,*4C
$GPGSA,A,1,,,,,,,,,,,,,,,*1E
$GPGSV,1,1,01,05,,,40*79
$GPRMC,135058.086,V,,,,,0.00,0.00,180117,,,N*47
$GPGGA,135059.086,,,,,0,0,,,M,,M,,*4D
$GPGSA,A,1,,,,,,,,,,,,,,,*1E
$GPGSV,1,1,01,05,,,40*79
$GPRMC,135059.086,V,,,,,0.00,0.00,180117,,,N*46
$GPGGA,135100.086,,,,,0,0,,,M,,M,,*40
$GPGSA,A,1,,,,,,,,,,,,,,,*1E
$GPGSV,1,1,01,05,,,40*79
$GPRMC,135100.086,V,,,,,0.00,0.00,180117,,,N*4B
$GPGGA,135101.086,,,,,0,0,,,M,,M,,*41
$GPGSA,A,1,,,,,,,,,,,,,,,*1E
$GPGSV,1,1,01,05,,,40*79
$GPRMC,135101.086,V,,,,,0.00,0.00,180117,,,N*4A
$GPGGA,135102.086,,,,,0,0,,,M,,M,,*42
$GPGSA,A,1,,,,,,,,,,,,,,,*1E
$GPGSV,1,1,01,05,,,40*79
$GPRMC,135102.086,V,,,,,0.00,0.00,180117,,,N*49
$GPGGA,135103.086,,,,,0,0,,,M,,M,,*43
$GPGSA,A,1,,,,,,,,,,,,,,,*1E
$GPGSV,1,1,01,05,,,40*79
$GPRMC,135103.086,V,,,,,0.00,0.00,180117,,,N*48
$GPGGA,135104.086,,,,,0,0,,,M,,M,,*44
$GPGSA,A,1,,,,,,,,,,,,,,,*1E
$GPGSV,1,1,01,05,,,40*79
$GPRMC,135104.086,V,,,,,0.00,0.00,180117,,,N*4F
$GPGGA,135105.086,,,,,0,0,,,M,,M,,*45
$GPGSA,A,1,,,,,,,,,,,,,,,*1E
$GPGSV,1,1,01,05,,,40*79
$GPRMC,135105.086,V,,,,,0.00,0.00,180117,,,N*4E
$GPGGA,135106.086,,,,,0,0,,,M,,M,,*46
$GPGSA,A,1,,,,,,,,,,,,,,,*1E
$GPGSV,1,1,01,05,,,40*79
$GPRMC,135106.086,V,,,,,0.00,0.00,180117,,,N*4D
$GPGGA,135107.086,,,,,0,0,,,M,,M,,*47
$GPGSA,A,1,,,,,,,,,,,,,,,*1E
$GPGSV,1,1,01,05,,,40*79
$GPRMC,135107.086,V,,,,,0.00,0.00,180117,,,N*4C
$GPGGA,135108.086,,,,,0,0,,,M,,M,,*48
$GPGSA,A,1,,,,,,,,,,,,,,,*1E
$GPGSV,1,1,01,05,,,40*79
$GPRMC,135108.086,V,,,,,0.00,0.00,180117,,,N*43
$GPGGA,135109.086,,,,,0,0,,,M,,M,,*49
$GPGSA,A,1,,,,,,,,,,,,,,,*1E
$GPGSV,1,1,01,05,,,40*79
$GPRMC,135109.086,V,,,,,0.00,0.00,180117,,,N*42
$GPGGA,135110.086,,,,,0,0,,,M,,M,,*41
$GPGSA,A,1,,,,,,,,,,,,,,,*1E
$GPGSV,1,1,01,05,,,40*79
$GPRMC,135110.086,V,,,,,0.00,0.00,180117,,,N*4A
$GPGGA,135111.086,,,,,0,0,,,M,,M,,*40
$GPGSA,A,1,,,,,,,,,,,,,,,*1E
$GPGSV,1,1,01,05,,,40*79
$GPRMC,135111.086,V,,,,,0.00,0.00,180117,,,N*4B
$GPGGA,135112.086,,,,,0,0,,,M,,M,,*43
$GPGSA,A,1,,,,,,,,,,,,,,,*1E
$GPGSV,1,1,01,05,,,40*79
$GPRMC,135112.086,V,,,,,0.00,0.00,180117,,,N*48
$GPGGA,135113.086,,,,,0,0,,,M,,M,,*42
$GPGSA,A,1,,,,,,,,,,,,,,,*1E
$GPGSV,1,1,01,05,,,40*79
$GPRMC,135113.086,V,,,,,0.00,0.00,180117,,,N*49
$GPGGA,135114.086,,,,,0,0,,,M,,M,,*45
$GPGSA,A,1,,,,,,,,,,,,,,,*1E
$GPGSV,1,1,01,05,,,40*79
$GPRMC,135114.086,V,,,,,0.00,0.00,180117,,,N*4E
$GPGGA,135115.086,,,,,0,0,,,M,,M,,*44
$GPGSA,A,1,,,,,,,,,,,,,,,*1E
$GPGSV,1,1,01,05,,,40*79
$GPRMC,135115.086,V,,,,,0.00,0.00,180117,,,N*4F
$GPGGA,135116.086,,,,,0,0,,,M,,M,,*47
$GPGSA,A,1,,,,,,,,,,,,,,,*1E
$GPGSV,1,1,01,05,,,40*79
$GPRMC,135116.086,V,,,,,0.00,0.00,180117,,,N*4C
$GPGGA,135117.086,,,,,0,0,,,M,,M,,*46
$GPGSA,A,1,,,,,,,,,,,,,,,*1E
$GPGSV,1,1,01,05,,,40*79
$GPRMC,135117.086,V,,,,,0.00,0.00,180117,,,N*4D
$GPGGA,135118.086,,,,,0,0,,,M,,M,,*49
$GPGSA,A,1,,,,,,,,,,,,,,,*1E
$GPGSV,1,1,01,05,,,40*79
$GPRMC,135118.086,V,,,,,0.00,0.00,180117,,,N*42
$GPGGA,135119.086,,,,,0,0,,,M,,M,,*48
$GPGSA,A,1,,,,,,,,,,,,,,,*1E
$GPGSV,1,1,01,05,,,40*79
$GPRMC,135119.086,V,,,,,0.00,0.00,180117,,,N*43
$GPGGA,135120.086,,,,,0,0,,,M,,M,,*42
$GPGSA,A,1,,,,,,,,,,,,,,,*1E
$GPGSV,1,1,01,05,,,40*79
$GPRMC,135120.086,V,,,,,0.00,0.00,180117,,,N*49
Getting GPS Status..

AT+CGPSSTATUS?
+CGPSSTATUS: Location Not Fix

OK
No GPS fix
$GPGGA,135121.086,,,,,0,0,,,M,,M,,*43
$GPGSA,A,1,,,,,,,,,,,,,,,*1E
$GPGSV,1,1,01,05,,,40*79
$GPRMC,135121.086,V,,,,,0.00,0.00,180117,,,N*48
$GPGGA,135122.086,,,,,0,0,,,M,,M,,*40
$GPGSA,A,1,,,,,,,,,,,,,,,*1E
$GPGSV,1,1,01,05,,,40*79
$GPRMC,135122.086,V,,,,,0.00,0.00,180117,,,N*4B
$GPGGA,135123.086,,,,,0,0,,,M,,M,,*41
$GPGSA,A,1,,,,,,,,,,,,,,,*1E
$GPGSV,1,1,01,05,,,40*79
$GPRMC,135123.086,V,,,,,0.00,0.00,180117,,,N*4A
Getting GPS Status..

AT+CGPSSTATUS?
+CGPSSTATUS: Location Not Fix

OK
No GPS fix
$GPGGA,135124.086,,,,,0,0,,,M,,M,,*46
$GPGSA,A,1,,,,,,,,,,,,,,,*1E
$GPGSV,1,1,01,05,,,40*79
$GPRMC,135124.086,V,,,,,0.00,0.00,180117,,,N*4D
$GPGGA,135125.086,,,,,0,0,,,M,,M,,*47
$GPGSA,A,1,,,,,,,,,,,,,,,*1E
$GPGSV,1,1,01,05,,,40*79
$GPRMC,135125.086,V,,,,,0.00,0.00,180117,,,N*4C
$GPGGA,135126.086,,,,,0,0,,,M,,M,,*44
$GPGSA,A,1,,,,,,,,,,,,,,,*1E
$GPGSV,1,1,01,05,,,40*79
$GPRMC,135126.086,V,,,,,0.00,0.00,180117,,,N*4F
Getting GPS Status..

AT+CGPSSTATUS?
+CGPSSTATUS: Location Not Fix

OK
No GPS fix
Getting GPS Status..

$GPGGA,135127.086,,,,,0,0,,,MXMX*jHGŽM±±±X,,X,±X,©Š‘ GSV,1,1,01,05,,,40*79
$GPRMC,135127.086,V,,,,,0.00,0.00,180117,,,N*4E
AT+CGPSSTATUS?
+CGPSSTATUS: Location Not Fix

OK
Command error.. Currently GPS commands only supported for SIMCOM modules

Getting GPS Status..

AT+CGPSSTATUS?
+CGPSSTATUS: Location Not Fix

OK
No GPS fix
Getting GPS Status..

AT+CGPSSTATUS?
+CGPSSTATUS: Location Not Fix

OK
No GPS fix
$GPGGA,135128.086,,,,,0,0,,,M,,M,,*4A
$GPGSA,A,1,,,,,,,,,,,,,,,*1E
$GPGSV,1,1,01,05,,,40*79
$GPRMC,135128.086,V,,,,,0.00,0.00,180117,,,N*41
$GPGGA,135129.086,,,,,0,0,,,M,,M,,*4B
$GPGSA,A,1,,,,,,,,,,,,,,,*1E
$GPGSV,1,1,01,05,,,40*79
$GPRMC,135129.086,V,,,,,0.00,0.00,180117,,,N*40
$GPGGA,135130.086,,,,,0,0,,,M,,M,,*43
$GPGSA,A,1,,,,,,,,,,,,,,,*1E
$GPGSV,1,1,01,05,,,40*79
$GPRMC,135130.086,V,,,,,0.00,0.00,180117,,,N*48
$GPGGA,135131.086,,,,,0,0,,,M,,M,,*42
$GPGSA,A,1,,,,,,,,,,,,,,,*1E
$GPGSV,1,1,01,05,,,40*79
$GPRMC,135131.086,V,,,,,0.00,0.00,180117,,,N*49
$GPGGA,135132.086,,,,,0,0,,,M,,M,,*41
$GPGSA,A,1,,,,,,,,,,,,,,,*1E
$GPGSV,1,1,01,05,,,40*79
$GPRMC,135132.086,V,,,,,0.00,0.00,180117,,,N*4A
$GPGGA,135133.086,,,,,0,0,,,M,,M,,*40
$GPGSA,A,1,,,,,,,,,,,,,,,*1E
$GPGSV,1,1,01,05,,,40*79
$GPRMC,135133.086,V,,,,,0.00,0.00,180117,,,N*4B
Getting GPS Status..

AT+CGPSSTATUS?
+CGPSSTATUS: Location Not Fix

OK
No GPS fix
$GPGGA,135134.086,,,,,0,0,,,M,,M,,*47
$GPGSA,A,1,,,,,,,,,,,,,,,*1E
$GPGSV,1,1,01,05,,,40*79
$GPRMC,135134.086,V,,,,,0.00,0.00,180117,,,N*4C
$GPGGA,135135.086,,,,,0,0,,,M,,M,,*46
$GPGSA,A,1,,,,,,,,,,,,,,,*1E
$GPGSV,1,1,01,05,,,40*79
$GPRMC,135135.086,V,,,,,0.00,0.00,180117,,,N*4D
$GPGGA,135136.086,,,,,0,0,,,M,,M,,*45
$GPGSA,A,1,,,,,,,,,,,,,,,*1E
$GPGSV,1,1,01,05,,,40*79
$GPRMC,135136.086,V,,,,,0.00,0.00,180117,,,N*4E
$GPGGA,135137.086,,,,,0,0,,,M,,M,,*44
$GPGSA,A,1,,,,,,,,,,,,,,,*1E
$GPGSV,1,1,01,05,,,40*79
$GPRMC,135137.086,V,,,,,0.00,0.00,180117,,,N*4F
Getting GPS Status..

AT+CGPSSTATUS?
+CGPSSTATUS: Location Not Fix

OK
No GPS fix
$GPGGA,135138.086,,,,,0,0,,,M,,M,,*4B
$GPGSA,A,1,,,,,,,,,,,,,,,*1E
$GPGSV,1,1,01,05,,,40*79
$GPRMC,135138.086,V,,,,,0.00,0.00,180117,,,N*40
$GPGGA,135139.086,,,,,0,0,,,M,,M,,*4A
$GPGSA,A,1,,,,,,,,,,,,,,,*1E
$GPGSV,1,1,01,05,,,40*79
$GPRMC,135139.086,V,,,,,0.00,0.00,180117,,,N*41
$GPGGA,135140.086,,,,,0,0,,,M,,M,,*44
$GPGSA,A,1,,,,,,,,,,,,,,,*1E
$GPGSV,1,1,01,05,,,40*79
$GPRMC,135140.086,V,,,,,0.00,0.00,180117,,,N*4F
$GPGGA,135141.086,,,,,0,0,,,M,,M,,*45
$GPGSA,A,1,,,,,,,,,,,,,,,*1E
$GPGSV,1,1,01,05,,,40*79
$GPRMC,135141.086,V,,,,,0.00,0.00,180117,,,N*4E
$GPGGA,135142.086,,,,,0,0,,,M,,M,,*46
$GPGSA,A,1,,,,,,,,,,,,,,,*1E
$GPGSV,1,1,01,05,,,40*79
$GPRMC,135142.086,V,,,,,0.00,0.00,180117,,,N*4D
$GPGGA,135143.086,,,,,0,0,,,M,,M,,*47
$GPGSA,A,1,,,,,,,,,,,,,,,*1E
$GPGSV,1,1,01,05,,,40*79
$GPRMC,135143.086,V,,,,,0.00,0.00,180117,,,N*4C
$GPGGA,135144.086,,,,,0,0,,,M,,M,,*40
$GPGSA,A,1,,,,,,,,,,,,,,,*1E
$GPGSV,1,1,01,05,,,40*79
$GPRMC,135144.086,V,,,,,0.00,0.00,180117,,,N*4B
$GPGGA,135145.086,,,,,0,0,,,M,,M,,*41
$GPGSA,A,1,,,,,,,,,,,,,,,*1E
$GPGSV,1,1,01,05,,,40*79
$GPRMC,135145.086,V,,,,,0.00,0.00,180117,,,N*4A
$GPGGA,135146.086,,,,,0,0,,,M,,M,,*42
$GPGSA,A,1,,,,,,,,,,,,,,,*1E
$GPGSV,1,1,01,05,,,40*79
$GPRMC,135146.086,V,,,,,0.00,0.00,180117,,,N*49
$GPGGA,135147.086,,,,,0,0,,,M,,M,,*43
$GPGSA,A,1,,,,,,,,,,,,,,,*1E
$GPGSV,1,1,01,05,,,40*79
$GPRMC,135147.086,V,,,,,0.00,0.00,180117,,,N*48
$GPGGA,135148.086,,,,,0,0,,,M,,M,,*4C
$GPGSA,A,1,,,,,,,,,,,,,,,*1E
$GPGSV,1,1,01,05,,,40*79
$GPRMC,135148.086,V,,,,,0.00,0.00,180117,,,N*47
$GPGGA,135149.086,,,,,0,0,,,M,,M,,*4D
$GPGSA,A,1,,,,,,,,,,,,,,,*1E
$GPGSV,1,1,01,05,,,40*79
$GPRMC,135149.086,V,,,,,0.00,0.00,180117,,,N*46
$GPGGA,135150.086,,,,,0,0,,,M,,M,,*45
$GPGSA,A,1,,,,,,,,,,,,,,,*1E
$GPGSV,1,1,01,05,,,40*79
$GPRMC,135150.086,V,,,,,0.00,0.00,180117,,,N*4E
$GPGGA,135151.086,,,,,0,0,,,M,,M,,*44
$GPGSA,A,1,,,,,,,,,,,,,,,*1E
$GPGSV,1,1,01,05,,,40*79
$GPRMC,135151.086,V,,,,,0.00,0.00,180117,,,N*4F
$GPGGA,135152.086,,,,,0,0,,,M,,M,,*47
$GPGSA,A,1,,,,,,,,,,,,,,,*1E
$GPGSV,1,1,01,05,,,40*79
$GPRMC,135152.086,V,,,,,0.00,0.00,180117,,,N*4C
$GPGGA,135153.086,,,,,0,0,,,M,,M,,*46
$GPGSA,A,1,,,,,,,,,,,,,,,*1E
$GPGSV,1,1,01,05,,,40*79
$GPRMC,135153.086,V,,,,,0.00,0.00,180117,,,N*4D
$GPGGA,135154.086,,,,,0,0,,,M,,M,,*41
$GPGSA,A,1,,,,,,,,,,,,,,,*1E
$GPGSV,1,1,01,05,,,40*79
$GPRMC,135154.086,V,,,,,0.00,0.00,180117,,,N*4A
$GPGGA,135155.086,,,,,0,0,,,M,,M,,*40
$GPGSA,A,1,,,,,,,,,,,,,,,*1E
$GPGSV,1,1,01,05,,,40*79
$GPRMC,135155.086,V,,,,,0.00,0.00,180117,,,N*4B
$GPGGA,135156.086,,,,,0,0,,,M,,M,,*43
$GPGSA,A,1,,,,,,,,,,,,,,,*1E
$GPGSV,1,1,01,05,,,40*79
$GPRMC,135156.086,V,,,,,0.00,0.00,180117,,,N*48
$GPGGA,135157.086,,,,,0,0,,,M,,M,,*42
$GPGSA,A,1,,,,,,,,,,,,,,,*1E
$GPGSV,1,1,01,05,,,40*79
$GPRMC,135157.086,V,,,,,0.00,0.00,180117,,,N*49
$GPGGA,135158.086,,,,,0,0,,,M,,M,,*4D
$GPGSA,A,1,,,,,,,,,,,,,,,*1E
$GPGSV,1,1,01,05,,,40*79
$GPRMC,135158.086,V,,,,,0.00,0.00,180117,,,N*46
$GPGGA,135159.086,,,,,0,0,,,M,,M,,*4C
$GPGSA,A,1,,,,,,,,,,,,,,,*1E
$GPGSV,1,1,01,05,,,40*79
$GPRMC,135159.086,V,,,,,0.00,0.00,180117,,,N*47
$GPGGA,135200.086,,,,,0,0,,,M,,M,,*43
$GPGSA,A,1,,,,,,,,,,,,,,,*1E
$GPGSV,1,1,01,05,,,40*79
$GPRMC,135200.086,V,,,,,0.00,0.00,180117,,,N*48
$GPGGA,135201.086,,,,,0,0,,,M,,M,,*42
$GPGSA,A,1,,,,,,,,,,,,,,,*1E
$GPGSV,1,1,01,05,,,40*79
$GPRMC,135201.086,V,,,,,0.00,0.00,180117,,,N*49
$GPGGA,135202.086,,,,,0,0,,,M,,M,,*41
$GPGSA,A,1,,,,,,,,,,,,,,,*1E
$GPGSV,1,1,01,05,,,40*79
$GPRMC,135202.086,V,,,,,0.00,0.00,180117,,,N*4A
$GPGGA,135203.086,,,,,0,0,,,M,,M,,*40
$GPGSA,A,1,,,,,,,,,,,,,,,*1E
$GPGSV,1,1,01,05,,,40*79
$GPRMC,135203.086,V,,,,,0.00,0.00,180117,,,N*4B
$GPGGA,135204.086,,,,,0,0,,,M,,M,,*47
$GPGSA,A,1,,,,,,,,,,,,,,,*1E
$GPGSV,1,1,01,05,,,40*79
$GPRMC,135204.086,V,,,,,0.00,0.00,180117,,,N*4C
$GPGGA,135205.086,,,,,0,0,,,M,,M,,*46
$GPGSA,A,1,,,,,,,,,,,,,,,*1E
$GPGSV,1,1,01,05,,,40*79
$GPRMC,135205.086,V,,,,,0.00,0.00,180117,,,N*4D
$GPGGA,135206.086,,,,,0,0,,,M,,M,,*45
$GPGSA,A,1,,,,,,,,,,,,,,,*1E
$GPGSV,1,1,01,05,,,40*79
$GPRMC,135206.086,V,,,,,0.00,0.00,180117,,,N*4E
$GPGGA,135207.086,,,,,0,0,,,M,,M,,*44
$GPGSA,A,1,,,,,,,,,,,,,,,*1E
$GPGSV,1,1,01,05,,,40*79
$GPRMC,135207.086,V,,,,,0.00,0.00,180117,,,N*4F
$GPGGA,135208.086,,,,,0,0,,,M,,M,,*4B
$GPGSA,A,1,,,,,,,,,,,,,,,*1E
$GPGSV,1,1,01,05,,,40*79
$GPRMC,135208.086,V,,,,,0.00,0.00,180117,,,N*40
Disconnecting port COM3.

